{
  "shops": [
    {
      "name": "Coffee Hub du soleil",
      "slogan": "Slogan 1",
      "location": {
        "address": {
          "street_number": 12,
          "street": "Rue Garibaldi",
          "city": "Biarritz",
          "zipcode": "64"
        }
      },
      "id": "e488"
    },
    {
      "_id": "6878d8a32831eafd3fad9fb0",
      "name": "Coffee Hub des Montagnes",
      "location": {
        "address": {
          "street_number": 19,
          "street": "Rue des Huskies",
          "city": "Chamonix-Mont-Blanc",
          "zipcode": "74400"
        },
        "geo": {
          "type": "point",
          "coordinates": [
            45.757879,
            4.852517
          ]
        }
      },
      "id": "3b70"
    },
    {
      "id": "0186",
      "name": "Always more coffee",
      "location": {
        "address": {
          "street_number": 21,
          "street": "Rue du Clos de Four",
          "city": "Clermont-Ferrand",
          "zipcode": "63100"
        }
      }
    }
  ],
  "coffees":[
    {
      "id": "123e",
      "name": "Café noisette",
      "description": "Un goût sucré et onctueux qui laisse une odeur de noisette dans votre vie.",
      "ingredients": [
        {
          "name": "café",
          "allergen" : false 
        },
        {
          "name": "lait",
          "allergen" : true 
        },
        {
          "name": "sucre",
          "allergen" : false 
        }
      ],
      "price": 3.00
    }
  ]
}